{
  "type": "FeatureCollection",
  "features": [
    {
      "type": "Feature",
      "properties": {
        "name": "Asunafo North Municipal",
        "region": "Ahafo",
        "radius": 4000
      },
      "geometry": { "type": "Point", "coordinates": [-2.8056, 6.8156] }
    },
    {
      "type": "Feature",
      "properties": {
        "name": "Asunafo South",
        "region": "Ahafo",
        "radius": 3500
      },
      "geometry": { "type": "Point", "coordinates": [-2.7833, 6.9833] }
    },
    {
      "type": "Feature",
      "properties": {
        "name": "Asutifi North",
        "region": "Ahafo",
        "radius": 3500
      },
      "geometry": { "type": "Point", "coordinates": [-2.7333, 6.9667] }
    },
    {
      "type": "Feature",
      "properties": {
        "name": "Asutifi South",
        "region": "Ahafo",
        "radius": 3500
      },
      "geometry": { "type": "Point", "coordinates": [-2.8167, 6.6667] }
    },
    {
      "type": "Feature",
      "properties": {
        "name": "Tano North Municipal",
        "region": "Ahafo",
        "radius": 4000
      },
      "geometry": { "type": "Point", "coordinates": [-2.3167, 7.0667] }
    },
    {
      "type": "Feature",
      "properties": {
        "name": "Tano South Municipal",
        "region": "Ahafo",
        "radius": 4000
      },
      "geometry": { "type": "Point", "coordinates": [-2.1667, 7.0] }
    },

    {
      "type": "Feature",
      "properties": {
        "name": "Adansi North",
        "region": "Ashanti",
        "radius": 3500
      },
      "geometry": { "type": "Point", "coordinates": [-1.5167, 6.25] }
    },
    {
      "type": "Feature",
      "properties": {
        "name": "Adansi South",
        "region": "Ashanti",
        "radius": 3500
      },
      "geometry": { "type": "Point", "coordinates": [-1.5167, 6.1667] }
    },
    {
      "type": "Feature",
      "properties": {
        "name": "Afigya Kwabre North",
        "region": "Ashanti",
        "radius": 3500
      },
      "geometry": { "type": "Point", "coordinates": [-1.5833, 6.8833] }
    },
    {
      "type": "Feature",
      "properties": {
        "name": "Afigya Kwabre South",
        "region": "Ashanti",
        "radius": 3500
      },
      "geometry": { "type": "Point", "coordinates": [-1.6167, 6.8333] }
    },
    {
      "type": "Feature",
      "properties": {
        "name": "Ahafo Ano North Municipal",
        "region": "Ashanti",
        "radius": 4000
      },
      "geometry": { "type": "Point", "coordinates": [-2.0667, 6.9167] }
    },
    {
      "type": "Feature",
      "properties": {
        "name": "Ahafo Ano South East",
        "region": "Ashanti",
        "radius": 3500
      },
      "geometry": { "type": "Point", "coordinates": [-1.9333, 6.75] }
    },
    {
      "type": "Feature",
      "properties": {
        "name": "Ahafo Ano South West",
        "region": "Ashanti",
        "radius": 3500
      },
      "geometry": { "type": "Point", "coordinates": [-2.0, 6.6667] }
    },
    {
      "type": "Feature",
      "properties": {
        "name": "Amansie Central",
        "region": "Ashanti",
        "radius": 3500
      },
      "geometry": { "type": "Point", "coordinates": [-1.6667, 6.3333] }
    },
    {
      "type": "Feature",
      "properties": {
        "name": "Amansie South",
        "region": "Ashanti",
        "radius": 3500
      },
      "geometry": { "type": "Point", "coordinates": [-2.0, 6.3333] }
    },
    {
      "type": "Feature",
      "properties": {
        "name": "Amansie West",
        "region": "Ashanti",
        "radius": 3500
      },
      "geometry": { "type": "Point", "coordinates": [-1.9167, 6.4667] }
    },
    {
      "type": "Feature",
      "properties": {
        "name": "Asante Akim Central Municipal",
        "region": "Ashanti",
        "radius": 4000
      },
      "geometry": { "type": "Point", "coordinates": [-1.1167, 6.5667] }
    },
    {
      "type": "Feature",
      "properties": {
        "name": "Asante Akim North",
        "region": "Ashanti",
        "radius": 3500
      },
      "geometry": { "type": "Point", "coordinates": [-1.0833, 6.8] }
    },
    {
      "type": "Feature",
      "properties": {
        "name": "Asante Akim South Municipal",
        "region": "Ashanti",
        "radius": 4000
      },
      "geometry": { "type": "Point", "coordinates": [-1.1167, 6.4667] }
    },
    {
      "type": "Feature",
      "properties": {
        "name": "Asokore Mampong Municipal",
        "region": "Ashanti",
        "radius": 4000
      },
      "geometry": { "type": "Point", "coordinates": [-1.6167, 6.7] }
    },
    {
      "type": "Feature",
      "properties": {
        "name": "Asokwa Municipal",
        "region": "Ashanti",
        "radius": 4000
      },
      "geometry": { "type": "Point", "coordinates": [-1.6167, 6.6667] }
    },
    {
      "type": "Feature",
      "properties": {
        "name": "Atwima Kwanwoma",
        "region": "Ashanti",
        "radius": 3500
      },
      "geometry": { "type": "Point", "coordinates": [-1.6667, 6.6167] }
    },
    {
      "type": "Feature",
      "properties": {
        "name": "Atwima Mponua",
        "region": "Ashanti",
        "radius": 3500
      },
      "geometry": { "type": "Point", "coordinates": [-2.1667, 6.5833] }
    },
    {
      "type": "Feature",
      "properties": {
        "name": "Atwima Nwabiagya North",
        "region": "Ashanti",
        "radius": 3500
      },
      "geometry": { "type": "Point", "coordinates": [-1.75, 6.75] }
    },
    {
      "type": "Feature",
      "properties": {
        "name": "Atwima Nwabiagya South Municipal",
        "region": "Ashanti",
        "radius": 4000
      },
      "geometry": { "type": "Point", "coordinates": [-1.8167, 6.6667] }
    },
    {
      "type": "Feature",
      "properties": {
        "name": "Bekwai Municipal",
        "region": "Ashanti",
        "radius": 3500
      },
      "geometry": { "type": "Point", "coordinates": [-1.5756, 6.4529] }
    },
    {
      "type": "Feature",
      "properties": {
        "name": "Bosome Freho",
        "region": "Ashanti",
        "radius": 3500
      },
      "geometry": { "type": "Point", "coordinates": [-1.3833, 6.3167] }
    },
    {
      "type": "Feature",
      "properties": { "name": "Bosomtwe", "region": "Ashanti", "radius": 3500 },
      "geometry": { "type": "Point", "coordinates": [-1.4667, 6.5333] }
    },
    {
      "type": "Feature",
      "properties": {
        "name": "Ejisu Municipal",
        "region": "Ashanti",
        "radius": 4000
      },
      "geometry": { "type": "Point", "coordinates": [-1.4667, 6.7167] }
    },
    {
      "type": "Feature",
      "properties": {
        "name": "Ejura Sekyedumase Municipal",
        "region": "Ashanti",
        "radius": 4000
      },
      "geometry": { "type": "Point", "coordinates": [-1.3667, 7.3833] }
    },
    {
      "type": "Feature",
      "properties": {
        "name": "Juaben Municipal",
        "region": "Ashanti",
        "radius": 4000
      },
      "geometry": { "type": "Point", "coordinates": [-1.4333, 6.8] }
    },
    {
      "type": "Feature",
      "properties": {
        "name": "Kumasi Metropolitan",
        "region": "Ashanti",
        "radius": 6000
      },
      "geometry": { "type": "Point", "coordinates": [-1.6244, 6.6885] }
    },
    {
      "type": "Feature",
      "properties": {
        "name": "Kwabre East Municipal",
        "region": "Ashanti",
        "radius": 4000
      },
      "geometry": { "type": "Point", "coordinates": [-1.5667, 6.7667] }
    },
    {
      "type": "Feature",
      "properties": {
        "name": "Kwadaso Municipal",
        "region": "Ashanti",
        "radius": 4000
      },
      "geometry": { "type": "Point", "coordinates": [-1.6667, 6.6833] }
    },
    {
      "type": "Feature",
      "properties": {
        "name": "Mampong Municipal",
        "region": "Ashanti",
        "radius": 6000
      },
      "geometry": { "type": "Point", "coordinates": [-1.3999, 7.0627] }
    },
    {
      "type": "Feature",
      "properties": {
        "name": "Obuasi East",
        "region": "Ashanti",
        "radius": 3500
      },
      "geometry": { "type": "Point", "coordinates": [-1.6667, 6.1833] }
    },
    {
      "type": "Feature",
      "properties": {
        "name": "Obuasi Municipal",
        "region": "Ashanti",
        "radius": 4000
      },
      "geometry": { "type": "Point", "coordinates": [-1.6649, 6.2012] }
    },
    {
      "type": "Feature",
      "properties": {
        "name": "Offinso Municipal",
        "region": "Ashanti",
        "radius": 4000
      },
      "geometry": { "type": "Point", "coordinates": [-1.6833, 7.0] }
    },
    {
      "type": "Feature",
      "properties": {
        "name": "Offinso North",
        "region": "Ashanti",
        "radius": 3500
      },
      "geometry": { "type": "Point", "coordinates": [-1.75, 7.1667] }
    },
    {
      "type": "Feature",
      "properties": {
        "name": "Oforikrom Municipal",
        "region": "Ashanti",
        "radius": 4000
      },
      "geometry": { "type": "Point", "coordinates": [-1.5833, 6.6833] }
    },
    {
      "type": "Feature",
      "properties": {
        "name": "Old Tafo Municipal",
        "region": "Ashanti",
        "radius": 4000
      },
      "geometry": { "type": "Point", "coordinates": [-1.6167, 6.7333] }
    },
    {
      "type": "Feature",
      "properties": {
        "name": "Sekyere Afram Plains",
        "region": "Ashanti",
        "radius": 3500
      },
      "geometry": { "type": "Point", "coordinates": [-0.9833, 7.0333] }
    },
    {
      "type": "Feature",
      "properties": {
        "name": "Sekyere Central",
        "region": "Ashanti",
        "radius": 3500
      },
      "geometry": { "type": "Point", "coordinates": [-1.2333, 7.1333] }
    },
    {
      "type": "Feature",
      "properties": {
        "name": "Sekyere East",
        "region": "Ashanti",
        "radius": 3500
      },
      "geometry": { "type": "Point", "coordinates": [-1.5167, 6.8667] }
    },
    {
      "type": "Feature",
      "properties": {
        "name": "Sekyere Kumawu",
        "region": "Ashanti",
        "radius": 3500
      },
      "geometry": { "type": "Point", "coordinates": [-1.2833, 6.9167] }
    },
    {
      "type": "Feature",
      "properties": {
        "name": "Sekyere South",
        "region": "Ashanti",
        "radius": 3500
      },
      "geometry": { "type": "Point", "coordinates": [-1.5667, 6.9333] }
    },
    {
      "type": "Feature",
      "properties": {
        "name": "Suame Municipal",
        "region": "Ashanti",
        "radius": 4000
      },
      "geometry": { "type": "Point", "coordinates": [-1.6333, 6.7167] }
    },

    {
      "type": "Feature",
      "properties": { "name": "Banda", "region": "Bono", "radius": 3500 },
      "geometry": { "type": "Point", "coordinates": [-2.3667, 8.1667] }
    },
    {
      "type": "Feature",
      "properties": {
        "name": "Berekum East Municipal",
        "region": "Bono",
        "radius": 4000
      },
      "geometry": { "type": "Point", "coordinates": [-2.584, 7.4534] }
    },
    {
      "type": "Feature",
      "properties": {
        "name": "Berekum West",
        "region": "Bono",
        "radius": 3500
      },
      "geometry": { "type": "Point", "coordinates": [-2.6167, 7.3833] }
    },
    {
      "type": "Feature",
      "properties": {
        "name": "Dormaa Central Municipal",
        "region": "Bono",
        "radius": 4000
      },
      "geometry": { "type": "Point", "coordinates": [-2.8833, 7.2833] }
    },
    {
      "type": "Feature",
      "properties": { "name": "Dormaa East", "region": "Bono", "radius": 3500 },
      "geometry": { "type": "Point", "coordinates": [-2.6667, 7.3] }
    },
    {
      "type": "Feature",
      "properties": { "name": "Dormaa West", "region": "Bono", "radius": 3500 },
      "geometry": { "type": "Point", "coordinates": [-2.9667, 7.1667] }
    },
    {
      "type": "Feature",
      "properties": { "name": "Jaman North", "region": "Bono", "radius": 3500 },
      "geometry": { "type": "Point", "coordinates": [-2.7, 7.9833] }
    },
    {
      "type": "Feature",
      "properties": {
        "name": "Jaman South Municipal",
        "region": "Bono",
        "radius": 4000
      },
      "geometry": { "type": "Point", "coordinates": [-2.7833, 7.5833] }
    },
    {
      "type": "Feature",
      "properties": {
        "name": "Sunyani Municipal",
        "region": "Bono",
        "radius": 5000
      },
      "geometry": { "type": "Point", "coordinates": [-2.3268, 7.3349] }
    },
    {
      "type": "Feature",
      "properties": {
        "name": "Sunyani West",
        "region": "Bono",
        "radius": 3500
      },
      "geometry": { "type": "Point", "coordinates": [-2.3667, 7.4] }
    },
    {
      "type": "Feature",
      "properties": { "name": "Tain", "region": "Bono", "radius": 3500 },
      "geometry": { "type": "Point", "coordinates": [-2.6833, 7.8833] }
    },
    {
      "type": "Feature",
      "properties": {
        "name": "Wenchi Municipal",
        "region": "Bono",
        "radius": 4000
      },
      "geometry": { "type": "Point", "coordinates": [-2.1, 7.7333] }
    },

    {
      "type": "Feature",
      "properties": {
        "name": "Atebubu-Amantin Municipal",
        "region": "Bono East",
        "radius": 4000
      },
      "geometry": { "type": "Point", "coordinates": [-0.9833, 7.6333] }
    },
    {
      "type": "Feature",
      "properties": {
        "name": "Kintampo North Municipal",
        "region": "Bono East",
        "radius": 4000
      },
      "geometry": { "type": "Point", "coordinates": [-1.7346, 8.0522] }
    },
    {
      "type": "Feature",
      "properties": {
        "name": "Kintampo South",
        "region": "Bono East",
        "radius": 3500
      },
      "geometry": { "type": "Point", "coordinates": [-1.7167, 7.95] }
    },
    {
      "type": "Feature",
      "properties": {
        "name": "Nkoranza North",
        "region": "Bono East",
        "radius": 3500
      },
      "geometry": { "type": "Point", "coordinates": [-1.6833, 7.5667] }
    },
    {
      "type": "Feature",
      "properties": {
        "name": "Nkoranza South Municipal",
        "region": "Bono East",
        "radius": 4000
      },
      "geometry": { "type": "Point", "coordinates": [-1.7, 7.5667] }
    },
    {
      "type": "Feature",
      "properties": {
        "name": "Pru East",
        "region": "Bono East",
        "radius": 3500
      },
      "geometry": { "type": "Point", "coordinates": [-0.6667, 8.2333] }
    },
    {
      "type": "Feature",
      "properties": {
        "name": "Pru West",
        "region": "Bono East",
        "radius": 3500
      },
      "geometry": { "type": "Point", "coordinates": [-1.3167, 8.0667] }
    },
    {
      "type": "Feature",
      "properties": {
        "name": "Sene East",
        "region": "Bono East",
        "radius": 3500
      },
      "geometry": { "type": "Point", "coordinates": [-0.1833, 7.7833] }
    },
    {
      "type": "Feature",
      "properties": {
        "name": "Sene West",
        "region": "Bono East",
        "radius": 3500
      },
      "geometry": { "type": "Point", "coordinates": [-0.6833, 7.85] }
    },
    {
      "type": "Feature",
      "properties": {
        "name": "Techiman Municipal",
        "region": "Bono East",
        "radius": 4500
      },
      "geometry": { "type": "Point", "coordinates": [-1.9392, 7.5772] }
    },
    {
      "type": "Feature",
      "properties": {
        "name": "Techiman North",
        "region": "Bono East",
        "radius": 3500
      },
      "geometry": { "type": "Point", "coordinates": [-1.9333, 7.6667] }
    },

    {
      "type": "Feature",
      "properties": {
        "name": "Abura Asebu Kwamankese",
        "region": "Central",
        "radius": 3500
      },
      "geometry": { "type": "Point", "coordinates": [-1.1667, 5.35] }
    },
    {
      "type": "Feature",
      "properties": {
        "name": "Agona East",
        "region": "Central",
        "radius": 3500
      },
      "geometry": { "type": "Point", "coordinates": [-0.6833, 5.6167] }
    },
    {
      "type": "Feature",
      "properties": {
        "name": "Agona West Municipal",
        "region": "Central",
        "radius": 4000
      },
      "geometry": { "type": "Point", "coordinates": [-0.7, 5.5333] }
    },
    {
      "type": "Feature",
      "properties": {
        "name": "Ajumako Enyan Essiam",
        "region": "Central",
        "radius": 3500
      },
      "geometry": { "type": "Point", "coordinates": [-0.9833, 5.4] }
    },
    {
      "type": "Feature",
      "properties": {
        "name": "Asikuma Odoben Brakwa",
        "region": "Central",
        "radius": 3500
      },
      "geometry": { "type": "Point", "coordinates": [-1.0167, 5.5833] }
    },
    {
      "type": "Feature",
      "properties": {
        "name": "Assin Central Municipal",
        "region": "Central",
        "radius": 4000
      },
      "geometry": { "type": "Point", "coordinates": [-1.2833, 5.7] }
    },
    {
      "type": "Feature",
      "properties": {
        "name": "Assin North",
        "region": "Central",
        "radius": 3500
      },
      "geometry": { "type": "Point", "coordinates": [-1.3667, 5.8333] }
    },
    {
      "type": "Feature",
      "properties": {
        "name": "Assin South",
        "region": "Central",
        "radius": 3500
      },
      "geometry": { "type": "Point", "coordinates": [-1.2833, 5.5333] }
    },
    {
      "type": "Feature",
      "properties": {
        "name": "Awutu Senya East Municipal",
        "region": "Central",
        "radius": 4000
      },
      "geometry": { "type": "Point", "coordinates": [-0.5167, 5.5333] }
    },
    {
      "type": "Feature",
      "properties": {
        "name": "Awutu Senya West",
        "region": "Central",
        "radius": 3500
      },
      "geometry": { "type": "Point", "coordinates": [-0.6167, 5.5] }
    },
    {
      "type": "Feature",
      "properties": {
        "name": "Cape Coast Metropolitan",
        "region": "Central",
        "radius": 5000
      },
      "geometry": { "type": "Point", "coordinates": [-1.2466, 5.1315] }
    },
    {
      "type": "Feature",
      "properties": {
        "name": "Effutu Municipal",
        "region": "Central",
        "radius": 4000
      },
      "geometry": { "type": "Point", "coordinates": [-0.6231, 5.3511] }
    },
    {
      "type": "Feature",
      "properties": { "name": "Ekumfi", "region": "Central", "radius": 3500 },
      "geometry": { "type": "Point", "coordinates": [-0.9667, 5.2667] }
    },
    {
      "type": "Feature",
      "properties": {
        "name": "Gomoa Central",
        "region": "Central",
        "radius": 3500
      },
      "geometry": { "type": "Point", "coordinates": [-0.7833, 5.5] }
    },
    {
      "type": "Feature",
      "properties": {
        "name": "Gomoa East",
        "region": "Central",
        "radius": 3500
      },
      "geometry": { "type": "Point", "coordinates": [-0.6667, 5.5333] }
    },
    {
      "type": "Feature",
      "properties": {
        "name": "Gomoa West",
        "region": "Central",
        "radius": 3500
      },
      "geometry": { "type": "Point", "coordinates": [-0.8333, 5.3833] }
    },
    {
      "type": "Feature",
      "properties": {
        "name": "Hemang Lower Denkyira",
        "region": "Central",
        "radius": 3500
      },
      "geometry": { "type": "Point", "coordinates": [-1.4333, 5.9167] }
    },
    {
      "type": "Feature",
      "properties": {
        "name": "Komenda Edina Eguafo Abirem Municipal",
        "region": "Central",
        "radius": 4000
      },
      "geometry": { "type": "Point", "coordinates": [-1.4916, 5.0812] }
    },
    {
      "type": "Feature",
      "properties": {
        "name": "Mfantseman Municipal",
        "region": "Central",
        "radius": 4000
      },
      "geometry": { "type": "Point", "coordinates": [-1.0667, 5.2] }
    },
    {
      "type": "Feature",
      "properties": {
        "name": "Twifo Atti Morkwa",
        "region": "Central",
        "radius": 3500
      },
      "geometry": { "type": "Point", "coordinates": [-1.55, 5.5167] }
    },
    {
      "type": "Feature",
      "properties": {
        "name": "Twifo Hemang Lower Denkyira",
        "region": "Central",
        "radius": 3500
      },
      "geometry": { "type": "Point", "coordinates": [-1.6167, 5.6333] }
    },
    {
      "type": "Feature",
      "properties": {
        "name": "Upper Denkyira East Municipal",
        "region": "Central",
        "radius": 4000
      },
      "geometry": { "type": "Point", "coordinates": [-1.7833, 5.9667] }
    },
    {
      "type": "Feature",
      "properties": {
        "name": "Upper Denkyira West",
        "region": "Central",
        "radius": 3500
      },
      "geometry": { "type": "Point", "coordinates": [-2.0, 5.8833] }
    },

    {
      "type": "Feature",
      "properties": {
        "name": "Abuakwa North Municipal",
        "region": "Eastern",
        "radius": 4000
      },
      "geometry": { "type": "Point", "coordinates": [-0.3667, 6.3167] }
    },
    {
      "type": "Feature",
      "properties": {
        "name": "Abuakwa South Municipal",
        "region": "Eastern",
        "radius": 4000
      },
      "geometry": { "type": "Point", "coordinates": [-0.3167, 6.1833] }
    },
    {
      "type": "Feature",
      "properties": { "name": "Achiase", "region": "Eastern", "radius": 3500 },
      "geometry": { "type": "Point", "coordinates": [-1.0, 5.8167] }
    },
    {
      "type": "Feature",
      "properties": {
        "name": "Akwapim North Municipal",
        "region": "Eastern",
        "radius": 4000
      },
      "geometry": { "type": "Point", "coordinates": [-0.0833, 5.9667] }
    },
    {
      "type": "Feature",
      "properties": {
        "name": "Akwapim South",
        "region": "Eastern",
        "radius": 3500
      },
      "geometry": { "type": "Point", "coordinates": [-0.1167, 5.9167] }
    },
    {
      "type": "Feature",
      "properties": {
        "name": "Akyemansa",
        "region": "Eastern",
        "radius": 3500
      },
      "geometry": { "type": "Point", "coordinates": [-0.9333, 6.2667] }
    },
    {
      "type": "Feature",
      "properties": {
        "name": "Asene Manso Akroso",
        "region": "Eastern",
        "radius": 3500
      },
      "geometry": { "type": "Point", "coordinates": [-0.6667, 5.8667] }
    },
    {
      "type": "Feature",
      "properties": {
        "name": "Asuogyaman",
        "region": "Eastern",
        "radius": 3500
      },
      "geometry": { "type": "Point", "coordinates": [0.0833, 6.4] }
    },
    {
      "type": "Feature",
      "properties": {
        "name": "Atiwa East",
        "region": "Eastern",
        "radius": 3500
      },
      "geometry": { "type": "Point", "coordinates": [-0.5, 6.3167] }
    },
    {
      "type": "Feature",
      "properties": {
        "name": "Atiwa West",
        "region": "Eastern",
        "radius": 3500
      },
      "geometry": { "type": "Point", "coordinates": [-0.6167, 6.3833] }
    },
    {
      "type": "Feature",
      "properties": {
        "name": "Ayensuano",
        "region": "Eastern",
        "radius": 3500
      },
      "geometry": { "type": "Point", "coordinates": [-0.4667, 5.9167] }
    },
    {
      "type": "Feature",
      "properties": {
        "name": "Birim Central Municipal",
        "region": "Eastern",
        "radius": 4000
      },
      "geometry": { "type": "Point", "coordinates": [-0.9833, 5.9167] }
    },
    {
      "type": "Feature",
      "properties": {
        "name": "Birim North",
        "region": "Eastern",
        "radius": 3500
      },
      "geometry": { "type": "Point", "coordinates": [-1.0333, 6.2] }
    },
    {
      "type": "Feature",
      "properties": {
        "name": "Birim South",
        "region": "Eastern",
        "radius": 3500
      },
      "geometry": { "type": "Point", "coordinates": [-1.0, 5.7833] }
    },
    {
      "type": "Feature",
      "properties": {
        "name": "Denkyembour",
        "region": "Eastern",
        "radius": 3500
      },
      "geometry": { "type": "Point", "coordinates": [-0.7833, 6.05] }
    },
    {
      "type": "Feature",
      "properties": {
        "name": "Fanteakwa North",
        "region": "Eastern",
        "radius": 3500
      },
      "geometry": { "type": "Point", "coordinates": [-0.3167, 6.5333] }
    },
    {
      "type": "Feature",
      "properties": {
        "name": "Fanteakwa South",
        "region": "Eastern",
        "radius": 3500
      },
      "geometry": { "type": "Point", "coordinates": [-0.3167, 6.4167] }
    },
    {
      "type": "Feature",
      "properties": {
        "name": "Kwaebibirem",
        "region": "Eastern",
        "radius": 3500
      },
      "geometry": { "type": "Point", "coordinates": [-0.8833, 6.1333] }
    },
    {
      "type": "Feature",
      "properties": {
        "name": "Kwahu Afram Plains North",
        "region": "Eastern",
        "radius": 3500
      },
      "geometry": { "type": "Point", "coordinates": [-0.0833, 7.0667] }
    },
    {
      "type": "Feature",
      "properties": {
        "name": "Kwahu Afram Plains South",
        "region": "Eastern",
        "radius": 3500
      },
      "geometry": { "type": "Point", "coordinates": [-0.3333, 6.9167] }
    },
    {
      "type": "Feature",
      "properties": {
        "name": "Kwahu East",
        "region": "Eastern",
        "radius": 3500
      },
      "geometry": { "type": "Point", "coordinates": [-0.7667, 6.5833] }
    },
    {
      "type": "Feature",
      "properties": {
        "name": "Kwahu South",
        "region": "Eastern",
        "radius": 3500
      },
      "geometry": { "type": "Point", "coordinates": [-0.5833, 6.5833] }
    },
    {
      "type": "Feature",
      "properties": {
        "name": "Kwahu West Municipal",
        "region": "Eastern",
        "radius": 4000
      },
      "geometry": { "type": "Point", "coordinates": [-0.7833, 6.7] }
    },
    {
      "type": "Feature",
      "properties": {
        "name": "Lower Manya Krobo Municipal",
        "region": "Eastern",
        "radius": 4000
      },
      "geometry": { "type": "Point", "coordinates": [-0.0667, 6.0833] }
    },
    {
      "type": "Feature",
      "properties": {
        "name": "New Juaben North Municipal",
        "region": "Eastern",
        "radius": 4000
      },
      "geometry": { "type": "Point", "coordinates": [-0.2667, 6.1167] }
    },
    {
      "type": "Feature",
      "properties": {
        "name": "New Juaben South Municipal",
        "region": "Eastern",
        "radius": 4000
      },
      "geometry": { "type": "Point", "coordinates": [-0.2591, 6.0943] }
    },
    {
      "type": "Feature",
      "properties": {
        "name": "Nsawam Adoagyiri Municipal",
        "region": "Eastern",
        "radius": 4000
      },
      "geometry": { "type": "Point", "coordinates": [-0.35, 5.8167] }
    },
    {
      "type": "Feature",
      "properties": { "name": "Okere", "region": "Eastern", "radius": 3500 },
      "geometry": { "type": "Point", "coordinates": [-0.0833, 6.0333] }
    },
    {
      "type": "Feature",
      "properties": {
        "name": "Suhum Municipal",
        "region": "Eastern",
        "radius": 4000
      },
      "geometry": { "type": "Point", "coordinates": [-0.45, 6.0333] }
    },
    {
      "type": "Feature",
      "properties": {
        "name": "Upper Manya Krobo",
        "region": "Eastern",
        "radius": 3500
      },
      "geometry": { "type": "Point", "coordinates": [0.0, 6.3] }
    },
    {
      "type": "Feature",
      "properties": {
        "name": "Upper West Akim",
        "region": "Eastern",
        "radius": 3500
      },
      "geometry": { "type": "Point", "coordinates": [-0.6667, 5.8167] }
    },
    {
      "type": "Feature",
      "properties": {
        "name": "West Akim Municipal",
        "region": "Eastern",
        "radius": 4000
      },
      "geometry": { "type": "Point", "coordinates": [-0.6667, 5.9167] }
    },
    {
      "type": "Feature",
      "properties": {
        "name": "Yilo Krobo Municipal",
        "region": "Eastern",
        "radius": 4000
      },
      "geometry": { "type": "Point", "coordinates": [-0.2167, 6.1333] }
    },

    {
      "type": "Feature",
      "properties": {
        "name": "Ablekuma Central Municipal",
        "region": "Greater Accra",
        "radius": 4000
      },
      "geometry": { "type": "Point", "coordinates": [-0.2333, 5.5667] }
    },
    {
      "type": "Feature",
      "properties": {
        "name": "Ablekuma North Municipal",
        "region": "Greater Accra",
        "radius": 4000
      },
      "geometry": { "type": "Point", "coordinates": [-0.2667, 5.6] }
    },
    {
      "type": "Feature",
      "properties": {
        "name": "Ablekuma West Municipal",
        "region": "Greater Accra",
        "radius": 4000
      },
      "geometry": { "type": "Point", "coordinates": [-0.3167, 5.5667] }
    },
    {
      "type": "Feature",
      "properties": {
        "name": "Accra Metropolitan",
        "region": "Greater Accra",
        "radius": 7000
      },
      "geometry": { "type": "Point", "coordinates": [-0.2057, 5.557] }
    },
    {
      "type": "Feature",
      "properties": {
        "name": "Ada East",
        "region": "Greater Accra",
        "radius": 3500
      },
      "geometry": { "type": "Point", "coordinates": [0.6333, 5.7833] }
    },
    {
      "type": "Feature",
      "properties": {
        "name": "Ada West",
        "region": "Greater Accra",
        "radius": 3500
      },
      "geometry": { "type": "Point", "coordinates": [0.4167, 5.8333] }
    },
    {
      "type": "Feature",
      "properties": {
        "name": "Adenta Municipal",
        "region": "Greater Accra",
        "radius": 4000
      },
      "geometry": { "type": "Point", "coordinates": [-0.1667, 5.7] }
    },
    {
      "type": "Feature",
      "properties": {
        "name": "Ashaiman Municipal",
        "region": "Greater Accra",
        "radius": 4000
      },
      "geometry": { "type": "Point", "coordinates": [0.0333, 5.7] }
    },
    {
      "type": "Feature",
      "properties": {
        "name": "Ayawaso Central Municipal",
        "region": "Greater Accra",
        "radius": 4000
      },
      "geometry": { "type": "Point", "coordinates": [-0.2, 5.5833] }
    },
    {
      "type": "Feature",
      "properties": {
        "name": "Ayawaso East Municipal",
        "region": "Greater Accra",
        "radius": 4000
      },
      "geometry": { "type": "Point", "coordinates": [-0.1833, 5.5667] }
    },
    {
      "type": "Feature",
      "properties": {
        "name": "Ayawaso North Municipal",
        "region": "Greater Accra",
        "radius": 4000
      },
      "geometry": { "type": "Point", "coordinates": [-0.2167, 5.6] }
    },
    {
      "type": "Feature",
      "properties": {
        "name": "Ayawaso West Municipal",
        "region": "Greater Accra",
        "radius": 4000
      },
      "geometry": { "type": "Point", "coordinates": [-0.2333, 5.6167] }
    },
    {
      "type": "Feature",
      "properties": {
        "name": "Ga Central Municipal",
        "region": "Greater Accra",
        "radius": 4000
      },
      "geometry": { "type": "Point", "coordinates": [-0.2833, 5.6167] }
    },
    {
      "type": "Feature",
      "properties": {
        "name": "Ga East Municipal",
        "region": "Greater Accra",
        "radius": 4000
      },
      "geometry": { "type": "Point", "coordinates": [-0.2, 5.6667] }
    },
    {
      "type": "Feature",
      "properties": {
        "name": "Ga North Municipal",
        "region": "Greater Accra",
        "radius": 4000
      },
      "geometry": { "type": "Point", "coordinates": [-0.25, 5.6833] }
    },
    {
      "type": "Feature",
      "properties": {
        "name": "Ga South Municipal",
        "region": "Greater Accra",
        "radius": 4000
      },
      "geometry": { "type": "Point", "coordinates": [-0.3167, 5.5333] }
    },
    {
      "type": "Feature",
      "properties": {
        "name": "Ga West Municipal",
        "region": "Greater Accra",
        "radius": 4500
      },
      "geometry": { "type": "Point", "coordinates": [-0.3098, 5.7029] }
    },
    {
      "type": "Feature",
      "properties": {
        "name": "Kpone Katamanso Municipal",
        "region": "Greater Accra",
        "radius": 4000
      },
      "geometry": { "type": "Point", "coordinates": [0.0667, 5.6833] }
    },
    {
      "type": "Feature",
      "properties": {
        "name": "Krowor Municipal",
        "region": "Greater Accra",
        "radius": 4000
      },
      "geometry": { "type": "Point", "coordinates": [-0.0667, 5.6] }
    },
    {
      "type": "Feature",
      "properties": {
        "name": "La Dade Kotopon Municipal",
        "region": "Greater Accra",
        "radius": 4000
      },
      "geometry": { "type": "Point", "coordinates": [-0.1833, 5.5833] }
    },
    {
      "type": "Feature",
      "properties": {
        "name": "La Nkwantanang Madina Municipal",
        "region": "Greater Accra",
        "radius": 4000
      },
      "geometry": { "type": "Point", "coordinates": [-0.1667, 5.6833] }
    },
    {
      "type": "Feature",
      "properties": {
        "name": "Ledzokuku Municipal",
        "region": "Greater Accra",
        "radius": 4000
      },
      "geometry": { "type": "Point", "coordinates": [-0.1167, 5.5833] }
    },
    {
      "type": "Feature",
      "properties": {
        "name": "Ningo Prampram",
        "region": "Greater Accra",
        "radius": 3500
      },
      "geometry": { "type": "Point", "coordinates": [0.1667, 5.75] }
    },
    {
      "type": "Feature",
      "properties": {
        "name": "Okaikwei North Municipal",
        "region": "Greater Accra",
        "radius": 4000
      },
      "geometry": { "type": "Point", "coordinates": [-0.2333, 5.6167] }
    },
    {
      "type": "Feature",
      "properties": {
        "name": "Shai Osudoku",
        "region": "Greater Accra",
        "radius": 3500
      },
      "geometry": { "type": "Point", "coordinates": [0.0833, 5.9167] }
    },
    {
      "type": "Feature",
      "properties": {
        "name": "Tema Metropolitan",
        "region": "Greater Accra",
        "radius": 5000
      },
      "geometry": { "type": "Point", "coordinates": [0.0007, 5.6591] }
    },
    {
      "type": "Feature",
      "properties": {
        "name": "Tema West Municipal",
        "region": "Greater Accra",
        "radius": 4000
      },
      "geometry": { "type": "Point", "coordinates": [-0.0167, 5.6333] }
    },
    {
      "type": "Feature",
      "properties": {
        "name": "Weija Gbawe Municipal",
        "region": "Greater Accra",
        "radius": 4000
      },
      "geometry": { "type": "Point", "coordinates": [-0.3333, 5.5667] }
    },

    {
      "type": "Feature",
      "properties": {
        "name": "Gushegu Municipal",
        "region": "Northern",
        "radius": 4000
      },
      "geometry": { "type": "Point", "coordinates": [-0.2167, 9.9167] }
    },
    {
      "type": "Feature",
      "properties": { "name": "Karaga", "region": "Northern", "radius": 3500 },
      "geometry": { "type": "Point", "coordinates": [-0.4333, 9.9167] }
    },
    {
      "type": "Feature",
      "properties": { "name": "Kpandai", "region": "Northern", "radius": 3500 },
      "geometry": { "type": "Point", "coordinates": [0.0167, 8.4667] }
    },
    {
      "type": "Feature",
      "properties": {
        "name": "Kumbungu",
        "region": "Northern",
        "radius": 3500
      },
      "geometry": { "type": "Point", "coordinates": [-0.95, 9.5667] }
    },
    {
      "type": "Feature",
      "properties": { "name": "Mion", "region": "Northern", "radius": 3500 },
      "geometry": { "type": "Point", "coordinates": [-0.0833, 9.3833] }
    },
    {
      "type": "Feature",
      "properties": { "name": "Nanton", "region": "Northern", "radius": 3500 },
      "geometry": { "type": "Point", "coordinates": [-0.75, 9.5667] }
    },
    {
      "type": "Feature",
      "properties": {
        "name": "Nanumba North Municipal",
        "region": "Northern",
        "radius": 4000
      },
      "geometry": { "type": "Point", "coordinates": [-0.5333, 8.9667] }
    },
    {
      "type": "Feature",
      "properties": {
        "name": "Nanumba South",
        "region": "Northern",
        "radius": 3500
      },
      "geometry": { "type": "Point", "coordinates": [-0.5667, 8.6667] }
    },
    {
      "type": "Feature",
      "properties": { "name": "Saboba", "region": "Northern", "radius": 3500 },
      "geometry": { "type": "Point", "coordinates": [0.3167, 9.7167] }
    },
    {
      "type": "Feature",
      "properties": {
        "name": "Sagnarigu Municipal",
        "region": "Northern",
        "radius": 4000
      },
      "geometry": { "type": "Point", "coordinates": [-0.8833, 9.4333] }
    },
    {
      "type": "Feature",
      "properties": {
        "name": "Savelugu Municipal",
        "region": "Northern",
        "radius": 4000
      },
      "geometry": { "type": "Point", "coordinates": [-0.8266, 9.6241] }
    },
    {
      "type": "Feature",
      "properties": {
        "name": "Tamale Metropolitan",
        "region": "Northern",
        "radius": 6000
      },
      "geometry": { "type": "Point", "coordinates": [-0.8393, 9.4034] }
    },
    {
      "type": "Feature",
      "properties": {
        "name": "Tatale Sanguli",
        "region": "Northern",
        "radius": 3500
      },
      "geometry": { "type": "Point", "coordinates": [0.5333, 9.3333] }
    },
    {
      "type": "Feature",
      "properties": { "name": "Tolon", "region": "Northern", "radius": 3500 },
      "geometry": { "type": "Point", "coordinates": [-1.0667, 9.4167] }
    },
    {
      "type": "Feature",
      "properties": {
        "name": "Yendi Municipal",
        "region": "Northern",
        "radius": 4500
      },
      "geometry": { "type": "Point", "coordinates": [-0.0099, 9.4427] }
    },
    {
      "type": "Feature",
      "properties": { "name": "Zabzugu", "region": "Northern", "radius": 3500 },
      "geometry": { "type": "Point", "coordinates": [0.3667, 9.2833] }
    },

    {
      "type": "Feature",
      "properties": {
        "name": "Bunkpurugu Nakpanduri",
        "region": "North East",
        "radius": 3500
      },
      "geometry": { "type": "Point", "coordinates": [-0.1167, 10.5333] }
    },
    {
      "type": "Feature",
      "properties": {
        "name": "Chereponi",
        "region": "North East",
        "radius": 3500
      },
      "geometry": { "type": "Point", "coordinates": [0.2667, 10.1333] }
    },
    {
      "type": "Feature",
      "properties": {
        "name": "East Mamprusi Municipal",
        "region": "North East",
        "radius": 4000
      },
      "geometry": { "type": "Point", "coordinates": [-0.3697, 10.5264] }
    },
    {
      "type": "Feature",
      "properties": {
        "name": "Mamprugu Moagduri",
        "region": "North East",
        "radius": 3500
      },
      "geometry": { "type": "Point", "coordinates": [-1.3167, 10.3167] }
    },
    {
      "type": "Feature",
      "properties": {
        "name": "West Mamprusi Municipal",
        "region": "North East",
        "radius": 4000
      },
      "geometry": { "type": "Point", "coordinates": [-0.8167, 10.1833] }
    },
    {
      "type": "Feature",
      "properties": {
        "name": "Yunyoo Nasuan",
        "region": "North East",
        "radius": 3500
      },
      "geometry": { "type": "Point", "coordinates": [-0.0167, 10.4667] }
    },

    {
      "type": "Feature",
      "properties": { "name": "Biakoye", "region": "Oti", "radius": 3500 },
      "geometry": { "type": "Point", "coordinates": [0.3167, 7.1167] }
    },
    {
      "type": "Feature",
      "properties": {
        "name": "Jasikan Municipal",
        "region": "Oti",
        "radius": 4000
      },
      "geometry": { "type": "Point", "coordinates": [0.4667, 7.4167] }
    },
    {
      "type": "Feature",
      "properties": { "name": "Kadjebi", "region": "Oti", "radius": 3500 },
      "geometry": { "type": "Point", "coordinates": [0.5, 7.5333] }
    },
    {
      "type": "Feature",
      "properties": {
        "name": "Krachi East Municipal",
        "region": "Oti",
        "radius": 4000
      },
      "geometry": { "type": "Point", "coordinates": [0.1833, 7.8] }
    },
    {
      "type": "Feature",
      "properties": {
        "name": "Krachi Nchumuru",
        "region": "Oti",
        "radius": 3500
      },
      "geometry": { "type": "Point", "coordinates": [-0.1667, 8.0833] }
    },
    {
      "type": "Feature",
      "properties": {
        "name": "Krachi West Municipal",
        "region": "Oti",
        "radius": 4000
      },
      "geometry": { "type": "Point", "coordinates": [-0.0667, 7.9833] }
    },
    {
      "type": "Feature",
      "properties": {
        "name": "Nkwanta North",
        "region": "Oti",
        "radius": 3500
      },
      "geometry": { "type": "Point", "coordinates": [0.3667, 8.3167] }
    },
    {
      "type": "Feature",
      "properties": {
        "name": "Nkwanta South Municipal",
        "region": "Oti",
        "radius": 4000
      },
      "geometry": { "type": "Point", "coordinates": [0.5167, 8.2667] }
    },
    {
      "type": "Feature",
      "properties": { "name": "Guan", "region": "Oti", "radius": 3500 },
      "geometry": { "type": "Point", "coordinates": [0.0667, 7.6667] }
    },

    {
      "type": "Feature",
      "properties": { "name": "Bole", "region": "Savannah", "radius": 3500 },
      "geometry": { "type": "Point", "coordinates": [-2.4833, 9.0333] }
    },
    {
      "type": "Feature",
      "properties": {
        "name": "Central Gonja",
        "region": "Savannah",
        "radius": 3500
      },
      "geometry": { "type": "Point", "coordinates": [-1.3167, 9.0833] }
    },
    {
      "type": "Feature",
      "properties": {
        "name": "East Gonja Municipal",
        "region": "Savannah",
        "radius": 4000
      },
      "geometry": { "type": "Point", "coordinates": [-0.9667, 8.9167] }
    },
    {
      "type": "Feature",
      "properties": {
        "name": "North East Gonja",
        "region": "Savannah",
        "radius": 3500
      },
      "geometry": { "type": "Point", "coordinates": [-0.9167, 9.3167] }
    },
    {
      "type": "Feature",
      "properties": {
        "name": "North Gonja",
        "region": "Savannah",
        "radius": 3500
      },
      "geometry": { "type": "Point", "coordinates": [-1.3833, 9.5333] }
    },
    {
      "type": "Feature",
      "properties": {
        "name": "Sawla-Tuna-Kalba",
        "region": "Savannah",
        "radius": 3500
      },
      "geometry": { "type": "Point", "coordinates": [-2.4167, 9.6833] }
    },
    {
      "type": "Feature",
      "properties": {
        "name": "West Gonja Municipal",
        "region": "Savannah",
        "radius": 4000
      },
      "geometry": { "type": "Point", "coordinates": [-1.815, 9.0833] }
    },

    {
      "type": "Feature",
      "properties": {
        "name": "Bawku Municipal",
        "region": "Upper East",
        "radius": 3500
      },
      "geometry": { "type": "Point", "coordinates": [-0.2417, 11.0541] }
    },
    {
      "type": "Feature",
      "properties": {
        "name": "Bawku West",
        "region": "Upper East",
        "radius": 3500
      },
      "geometry": { "type": "Point", "coordinates": [-0.4667, 10.9667] }
    },
    {
      "type": "Feature",
      "properties": {
        "name": "Binduri",
        "region": "Upper East",
        "radius": 3500
      },
      "geometry": { "type": "Point", "coordinates": [-0.3167, 10.9667] }
    },
    {
      "type": "Feature",
      "properties": {
        "name": "Bolgatanga East",
        "region": "Upper East",
        "radius": 3500
      },
      "geometry": { "type": "Point", "coordinates": [-0.8667, 10.8333] }
    },
    {
      "type": "Feature",
      "properties": {
        "name": "Bolgatanga Municipal",
        "region": "Upper East",
        "radius": 4000
      },
      "geometry": { "type": "Point", "coordinates": [-0.8558, 10.7856] }
    },
    {
      "type": "Feature",
      "properties": { "name": "Bongo", "region": "Upper East", "radius": 3500 },
      "geometry": { "type": "Point", "coordinates": [-0.8167, 10.9167] }
    },
    {
      "type": "Feature",
      "properties": {
        "name": "Builsa North Municipal",
        "region": "Upper East",
        "radius": 4000
      },
      "geometry": { "type": "Point", "coordinates": [-1.2833, 10.7] }
    },
    {
      "type": "Feature",
      "properties": {
        "name": "Builsa South",
        "region": "Upper East",
        "radius": 3500
      },
      "geometry": { "type": "Point", "coordinates": [-1.3167, 10.5333] }
    },
    {
      "type": "Feature",
      "properties": { "name": "Garu", "region": "Upper East", "radius": 3500 },
      "geometry": { "type": "Point", "coordinates": [-0.1833, 10.85] }
    },
    {
      "type": "Feature",
      "properties": {
        "name": "Kassena Nankana East Municipal",
        "region": "Upper East",
        "radius": 4000
      },
      "geometry": { "type": "Point", "coordinates": [-1.0833, 10.8833] }
    },
    {
      "type": "Feature",
      "properties": {
        "name": "Kassena Nankana West",
        "region": "Upper East",
        "radius": 3500
      },
      "geometry": { "type": "Point", "coordinates": [-1.1667, 10.9667] }
    },
    {
      "type": "Feature",
      "properties": {
        "name": "Nabdam",
        "region": "Upper East",
        "radius": 3500
      },
      "geometry": { "type": "Point", "coordinates": [-0.6667, 10.8333] }
    },
    {
      "type": "Feature",
      "properties": {
        "name": "Pusiga",
        "region": "Upper East",
        "radius": 3500
      },
      "geometry": { "type": "Point", "coordinates": [-0.1333, 11.0833] }
    },
    {
      "type": "Feature",
      "properties": {
        "name": "Talensi",
        "region": "Upper East",
        "radius": 3500
      },
      "geometry": { "type": "Point", "coordinates": [-0.7167, 10.7167] }
    },
    {
      "type": "Feature",
      "properties": {
        "name": "Tempane",
        "region": "Upper East",
        "radius": 3500
      },
      "geometry": { "type": "Point", "coordinates": [-0.1333, 10.9667] }
    },

    {
      "type": "Feature",
      "properties": {
        "name": "Daffiama Bussie Issa",
        "region": "Upper West",
        "radius": 3500
      },
      "geometry": { "type": "Point", "coordinates": [-2.3167, 10.3833] }
    },
    {
      "type": "Feature",
      "properties": {
        "name": "Jirapa Municipal",
        "region": "Upper West",
        "radius": 4000
      },
      "geometry": { "type": "Point", "coordinates": [-2.7, 10.5333] }
    },
    {
      "type": "Feature",
      "properties": {
        "name": "Lambussie Karni",
        "region": "Upper West",
        "radius": 3500
      },
      "geometry": { "type": "Point", "coordinates": [-2.6667, 10.8333] }
    },
    {
      "type": "Feature",
      "properties": {
        "name": "Lawra Municipal",
        "region": "Upper West",
        "radius": 4000
      },
      "geometry": { "type": "Point", "coordinates": [-2.8833, 10.6667] }
    },
    {
      "type": "Feature",
      "properties": {
        "name": "Nadowli Kaleo",
        "region": "Upper West",
        "radius": 3500
      },
      "geometry": { "type": "Point", "coordinates": [-2.6667, 10.3167] }
    },
    {
      "type": "Feature",
      "properties": {
        "name": "Nandom Municipal",
        "region": "Upper West",
        "radius": 3000
      },
      "geometry": { "type": "Point", "coordinates": [-2.759, 10.8527] }
    },
    {
      "type": "Feature",
      "properties": {
        "name": "Sissala East Municipal",
        "region": "Upper West",
        "radius": 4000
      },
      "geometry": { "type": "Point", "coordinates": [-1.9667, 10.5667] }
    },
    {
      "type": "Feature",
      "properties": {
        "name": "Sissala West",
        "region": "Upper West",
        "radius": 3500
      },
      "geometry": { "type": "Point", "coordinates": [-2.3167, 10.6667] }
    },
    {
      "type": "Feature",
      "properties": {
        "name": "Wa East",
        "region": "Upper West",
        "radius": 3500
      },
      "geometry": { "type": "Point", "coordinates": [-1.9167, 10.0667] }
    },
    {
      "type": "Feature",
      "properties": {
        "name": "Wa Municipal",
        "region": "Upper West",
        "radius": 4000
      },
      "geometry": { "type": "Point", "coordinates": [-2.5099, 10.0607] }
    },
    {
      "type": "Feature",
      "properties": {
        "name": "Wa West",
        "region": "Upper West",
        "radius": 3500
      },
      "geometry": { "type": "Point", "coordinates": [-2.6833, 9.9167] }
    },

    {
      "type": "Feature",
      "properties": { "name": "Adaklu", "region": "Volta", "radius": 3500 },
      "geometry": { "type": "Point", "coordinates": [0.6167, 6.5] }
    },
    {
      "type": "Feature",
      "properties": {
        "name": "Afadzato South",
        "region": "Volta",
        "radius": 3500
      },
      "geometry": { "type": "Point", "coordinates": [0.4833, 6.8833] }
    },
    {
      "type": "Feature",
      "properties": {
        "name": "Agotime Ziope",
        "region": "Volta",
        "radius": 3500
      },
      "geometry": { "type": "Point", "coordinates": [0.7833, 6.3167] }
    },
    {
      "type": "Feature",
      "properties": {
        "name": "Akatsi North",
        "region": "Volta",
        "radius": 3500
      },
      "geometry": { "type": "Point", "coordinates": [0.8167, 6.3167] }
    },
    {
      "type": "Feature",
      "properties": {
        "name": "Akatsi South Municipal",
        "region": "Volta",
        "radius": 4000
      },
      "geometry": { "type": "Point", "coordinates": [0.8, 6.1333] }
    },
    {
      "type": "Feature",
      "properties": { "name": "Anloga", "region": "Volta", "radius": 3500 },
      "geometry": { "type": "Point", "coordinates": [0.9, 5.7833] }
    },
    {
      "type": "Feature",
      "properties": {
        "name": "Central Tongu",
        "region": "Volta",
        "radius": 3500
      },
      "geometry": { "type": "Point", "coordinates": [0.6167, 6.05] }
    },
    {
      "type": "Feature",
      "properties": {
        "name": "Ho Municipal",
        "region": "Volta",
        "radius": 4000
      },
      "geometry": { "type": "Point", "coordinates": [0.4701, 6.6111] }
    },
    {
      "type": "Feature",
      "properties": { "name": "Ho West", "region": "Volta", "radius": 3500 },
      "geometry": { "type": "Point", "coordinates": [0.3167, 6.5833] }
    },
    {
      "type": "Feature",
      "properties": {
        "name": "Hohoe Municipal",
        "region": "Volta",
        "radius": 4000
      },
      "geometry": { "type": "Point", "coordinates": [0.4667, 7.15] }
    },
    {
      "type": "Feature",
      "properties": {
        "name": "Keta Municipal",
        "region": "Volta",
        "radius": 3500
      },
      "geometry": { "type": "Point", "coordinates": [0.9938, 5.9178] }
    },
    {
      "type": "Feature",
      "properties": {
        "name": "Ketu North Municipal",
        "region": "Volta",
        "radius": 4000
      },
      "geometry": { "type": "Point", "coordinates": [0.8833, 6.1833] }
    },
    {
      "type": "Feature",
      "properties": {
        "name": "Ketu South Municipal",
        "region": "Volta",
        "radius": 4000
      },
      "geometry": { "type": "Point", "coordinates": [1.15, 6.1167] }
    },
    {
      "type": "Feature",
      "properties": { "name": "North Dayi", "region": "Volta", "radius": 3500 },
      "geometry": { "type": "Point", "coordinates": [0.3167, 6.8667] }
    },
    {
      "type": "Feature",
      "properties": {
        "name": "North Tongu",
        "region": "Volta",
        "radius": 3500
      },
      "geometry": { "type": "Point", "coordinates": [0.3167, 6.0833] }
    },
    {
      "type": "Feature",
      "properties": { "name": "South Dayi", "region": "Volta", "radius": 3500 },
      "geometry": { "type": "Point", "coordinates": [0.3167, 6.6833] }
    },
    {
      "type": "Feature",
      "properties": {
        "name": "South Tongu Municipal",
        "region": "Volta",
        "radius": 4000
      },
      "geometry": { "type": "Point", "coordinates": [0.6333, 6.0] }
    },

    {
      "type": "Feature",
      "properties": {
        "name": "Ahanta West Municipal",
        "region": "Western",
        "radius": 4000
      },
      "geometry": { "type": "Point", "coordinates": [-2.0833, 4.8833] }
    },
    {
      "type": "Feature",
      "properties": {
        "name": "Amenfi Central",
        "region": "Western",
        "radius": 3500
      },
      "geometry": { "type": "Point", "coordinates": [-2.0833, 5.75] }
    },
    {
      "type": "Feature",
      "properties": {
        "name": "Amenfi East Municipal",
        "region": "Western",
        "radius": 4000
      },
      "geometry": { "type": "Point", "coordinates": [-2.0833, 5.9167] }
    },
    {
      "type": "Feature",
      "properties": {
        "name": "Amenfi West Municipal",
        "region": "Western",
        "radius": 4000
      },
      "geometry": { "type": "Point", "coordinates": [-2.4333, 5.75] }
    },
    {
      "type": "Feature",
      "properties": {
        "name": "Effia Kwesimintsim Municipal",
        "region": "Western",
        "radius": 4000
      },
      "geometry": { "type": "Point", "coordinates": [-1.75, 4.9333] }
    },
    {
      "type": "Feature",
      "properties": {
        "name": "Ellembelle",
        "region": "Western",
        "radius": 3500
      },
      "geometry": { "type": "Point", "coordinates": [-2.3167, 4.9667] }
    },
    {
      "type": "Feature",
      "properties": {
        "name": "Jomoro Municipal",
        "region": "Western",
        "radius": 4000
      },
      "geometry": { "type": "Point", "coordinates": [-2.6667, 5.0167] }
    },
    {
      "type": "Feature",
      "properties": { "name": "Mpohor", "region": "Western", "radius": 3500 },
      "geometry": { "type": "Point", "coordinates": [-1.8833, 5.0833] }
    },
    {
      "type": "Feature",
      "properties": {
        "name": "Nzema East Municipal",
        "region": "Western",
        "radius": 4000
      },
      "geometry": { "type": "Point", "coordinates": [-2.2333, 5.0667] }
    },
    {
      "type": "Feature",
      "properties": {
        "name": "Prestea Huni Valley Municipal",
        "region": "Western",
        "radius": 4000
      },
      "geometry": { "type": "Point", "coordinates": [-2.0167, 5.4333] }
    },
    {
      "type": "Feature",
      "properties": {
        "name": "Sekondi Takoradi Metropolitan",
        "region": "Western",
        "radius": 6000
      },
      "geometry": { "type": "Point", "coordinates": [-1.7603, 4.9342] }
    },
    {
      "type": "Feature",
      "properties": { "name": "Shama", "region": "Western", "radius": 3500 },
      "geometry": { "type": "Point", "coordinates": [-1.6333, 5.0167] }
    },
    {
      "type": "Feature",
      "properties": {
        "name": "Tarkwa Nsuaem Municipal",
        "region": "Western",
        "radius": 4500
      },
      "geometry": { "type": "Point", "coordinates": [-1.9836, 5.3018] }
    },
    {
      "type": "Feature",
      "properties": {
        "name": "Wassa East",
        "region": "Western",
        "radius": 3500
      },
      "geometry": { "type": "Point", "coordinates": [-1.6667, 5.1667] }
    },

    {
      "type": "Feature",
      "properties": {
        "name": "Aowin Municipal",
        "region": "Western North",
        "radius": 4000
      },
      "geometry": { "type": "Point", "coordinates": [-2.7833, 5.75] }
    },
    {
      "type": "Feature",
      "properties": {
        "name": "Bia East",
        "region": "Western North",
        "radius": 3500
      },
      "geometry": { "type": "Point", "coordinates": [-3.0833, 6.8167] }
    },
    {
      "type": "Feature",
      "properties": {
        "name": "Bia West",
        "region": "Western North",
        "radius": 3500
      },
      "geometry": { "type": "Point", "coordinates": [-2.9667, 6.6667] }
    },
    {
      "type": "Feature",
      "properties": {
        "name": "Bibiani Anhwiaso Bekwai Municipal",
        "region": "Western North",
        "radius": 4000
      },
      "geometry": { "type": "Point", "coordinates": [-2.3167, 6.4667] }
    },
    {
      "type": "Feature",
      "properties": {
        "name": "Bodi",
        "region": "Western North",
        "radius": 3500
      },
      "geometry": { "type": "Point", "coordinates": [-2.75, 6.2333] }
    },
    {
      "type": "Feature",
      "properties": {
        "name": "Juaboso",
        "region": "Western North",
        "radius": 3500
      },
      "geometry": { "type": "Point", "coordinates": [-2.8333, 6.3333] }
    },
    {
      "type": "Feature",
      "properties": {
        "name": "Sefwi Akontombra",
        "region": "Western North",
        "radius": 3500
      },
      "geometry": { "type": "Point", "coordinates": [-2.8833, 6.05] }
    },
    {
      "type": "Feature",
      "properties": {
        "name": "Sefwi Wiawso Municipal",
        "region": "Western North",
        "radius": 4000
      },
      "geometry": { "type": "Point", "coordinates": [-2.4855, 6.2069] }
    },
    {
      "type": "Feature",
      "properties": {
        "name": "Suaman",
        "region": "Western North",
        "radius": 3500
      },
      "geometry": { "type": "Point", "coordinates": [-2.9667, 5.9667] }
    }
  ]
}
